City,Country,Lat,Lng,Max Temp,Humidity,Cloudiness,Wind Speed,Date
albany,US,42.6526,-73.7562,13.33,40,0,0.89,2021-03-10 19:00:11
qaanaaq,GL,77.484,-69.3632,-14.17,81,0,2.79,2021-03-10 19:00:12
busselton,AU,-33.65,115.3333,21.67,93,100,0.89,2021-03-10 19:00:12
sandata,RU,46.2708,41.7583,-2.32,83,100,3.77,2021-03-10 19:00:12
lovozero,RU,68.005,35.0117,-15.97,81,1,2.12,2021-03-10 19:00:13
narsaq,GL,60.9167,-46.05,-3.0,63,75,1.03,2021-03-10 19:00:14
ayagoz,KZ,47.9714,80.4392,1.79,86,100,6.28,2021-03-10 19:00:14
kapaa,US,22.0752,-159.319,23.0,94,90,4.63,2021-03-10 18:59:45
yellowknife,CA,62.456,-114.3525,-20.0,65,1,5.14,2021-03-10 19:00:05
zaysan,KZ,47.4667,84.8667,-1.48,84,99,0.54,2021-03-10 19:00:15
neuquen,AR,-38.9516,-68.0591,34.0,11,0,8.75,2021-03-10 19:00:15
buraydah,SA,26.326,43.975,23.0,31,0,6.69,2021-03-10 19:00:16
ponta do sol,PT,32.6667,-17.1,16.11,67,40,6.17,2021-03-10 19:00:17
bredasdorp,ZA,-34.5322,20.0403,18.0,100,100,1.54,2021-03-10 19:00:17
daru,PG,-9.0763,143.2092,25.74,86,100,2.4,2021-03-10 19:00:18
ribeira grande,PT,38.5167,-28.7,16.0,100,75,7.2,2021-03-10 19:00:18
thompson,CA,55.7435,-97.8558,-5.0,50,75,5.14,2021-03-10 19:00:19
las vegas,US,36.175,-115.1372,12.0,32,20,3.6,2021-03-10 19:00:06
ushuaia,AR,-54.8,-68.3,8.0,71,20,10.8,2021-03-10 19:00:19
barrow,US,71.2906,-156.7887,-15.0,72,90,8.75,2021-03-10 19:00:04
bhawana,PK,31.5692,72.649,21.65,26,100,4.72,2021-03-10 19:00:20
port-gentil,GA,-0.7193,8.7815,27.0,83,20,4.27,2021-03-10 19:00:20
chuy,UY,-33.6971,-53.4616,23.41,64,4,4.0,2021-03-10 19:00:21
avarua,CK,-21.2078,-159.775,27.0,83,40,2.57,2021-03-10 19:00:22
cherskiy,RU,68.75,161.3,-26.41,78,0,7.14,2021-03-10 19:00:22
luderitz,NA,-26.6481,15.1594,20.51,76,0,6.25,2021-03-10 19:00:23
coquimbo,CL,-29.9533,-71.3436,22.0,64,40,5.66,2021-03-10 19:00:23
dicabisagan,PH,17.0818,122.4157,23.37,85,73,2.57,2021-03-10 19:00:24
upernavik,GL,72.7868,-56.1549,-13.24,83,30,0.79,2021-03-10 19:00:24
puerto ayora,EC,-0.7393,-90.3518,28.89,84,34,2.24,2021-03-10 19:00:25
amahai,ID,-3.3333,128.9167,25.61,80,95,1.9,2021-03-10 19:00:25
atuona,PF,-9.8,-139.0333,26.6,73,65,7.56,2021-03-10 19:00:26
tacarigua,VE,10.0862,-67.9198,30.0,42,100,3.09,2021-03-10 19:00:26
rikitea,PF,-23.1203,-134.9692,26.41,72,75,8.08,2021-03-10 19:00:27
maldonado,UY,-34.9,-54.95,25.56,57,20,7.2,2021-03-10 19:00:28
brcko,BA,44.8728,18.8083,6.11,86,40,0.51,2021-03-10 19:00:28
bafata,GW,12.1667,-14.6667,34.08,13,0,1.9,2021-03-10 19:00:29
mackenzie,CA,55.2999,-123.1698,-8.0,45,1,2.57,2021-03-10 19:00:29
new norfolk,AU,-42.7826,147.0587,10.56,70,0,1.1,2021-03-10 19:00:30
chokurdakh,RU,70.6333,147.9167,-19.87,92,100,5.37,2021-03-10 19:00:30
sao joao da barra,BR,-21.6403,-41.0511,30.0,58,75,6.17,2021-03-10 19:00:31
wasilla,US,61.5814,-149.4394,1.0,60,90,3.09,2021-03-10 19:00:31
nanortalik,GL,60.1432,-45.2371,-2.11,92,83,6.81,2021-03-10 19:00:32
gobo,JP,33.8833,135.15,5.0,65,20,1.54,2021-03-10 19:00:32
jacqueville,CI,5.2052,-4.4146,28.0,89,20,4.63,2021-03-10 19:00:33
saint-philippe,RE,-21.3585,55.7679,26.0,78,0,3.6,2021-03-10 19:00:33
los llanos de aridane,ES,28.6585,-17.9182,18.0,63,40,7.72,2021-03-10 19:00:34
taoudenni,ML,22.6783,-3.9836,24.78,18,0,5.04,2021-03-10 19:00:35
margate,GB,51.3813,1.3862,10.56,83,100,3.58,2021-03-10 19:00:35
zhigansk,RU,66.7697,123.3711,-23.78,90,100,2.4,2021-03-10 19:00:36
bethel,US,41.3712,-73.414,13.0,35,1,4.63,2021-03-10 19:00:36
veraval,IN,20.9,70.3667,23.05,83,0,4.93,2021-03-10 19:00:37
cayenne,GF,4.9333,-52.3333,30.0,66,75,6.69,2021-03-10 19:00:06
sao filipe,CV,14.8961,-24.4956,21.54,75,95,5.13,2021-03-10 19:00:37
elizabeth city,US,36.2946,-76.2511,22.78,30,1,4.12,2021-03-10 19:00:38
tongren,CN,27.7172,109.1853,9.04,87,100,0.53,2021-03-10 19:00:38
jaguarao,BR,-32.5661,-53.3758,25.26,53,15,3.61,2021-03-10 19:00:39
georgetown,GY,6.8045,-58.1553,31.0,74,75,5.14,2021-03-10 19:00:39
narrabri,AU,-30.3167,149.7833,20.0,77,40,2.57,2021-03-10 19:00:40
nalut,LY,31.8685,10.9812,10.67,82,75,11.34,2021-03-10 19:00:40
aksarayskiy,RU,46.7924,48.0119,-5.0,63,0,4.0,2021-03-10 19:00:41
hilo,US,19.7297,-155.09,22.0,83,90,2.06,2021-03-10 19:00:08
vaini,TO,-21.2,-175.2,23.0,83,20,2.57,2021-03-10 19:00:41
haines junction,CA,60.7522,-137.5108,-18.0,71,100,1.03,2021-03-10 19:00:42
bilibino,RU,68.0546,166.4372,-32.54,79,0,1.11,2021-03-10 19:00:42
khatanga,RU,71.9667,102.5,-28.31,85,100,10.62,2021-03-10 19:00:43
tiksi,RU,71.6872,128.8694,-30.29,84,89,7.41,2021-03-10 19:00:44
punta arenas,CL,-53.15,-70.9167,9.0,57,40,13.89,2021-03-10 19:00:44
kavieng,PG,-2.5744,150.7967,27.57,72,92,3.08,2021-03-10 19:00:45
butaritari,KI,3.0707,172.7902,27.19,78,89,5.48,2021-03-10 19:00:45
zyryanka,RU,65.75,150.85,-24.22,82,27,4.56,2021-03-10 19:00:46
cape town,ZA,-33.9258,18.4232,20.56,94,75,8.75,2021-03-10 18:58:37
codrington,AU,-38.2667,141.9667,10.79,92,100,2.82,2021-03-10 19:00:46
dingle,PH,10.9995,122.6711,23.4,89,35,3.78,2021-03-10 19:00:47
catuday,PH,16.2923,119.8062,24.16,73,100,4.4,2021-03-10 19:00:48
port pirie,AU,-33.1833,138.0167,15.0,100,0,2.06,2021-03-10 19:00:48
hobart,AU,-42.8794,147.3294,12.0,76,0,1.03,2021-03-10 19:00:41
port elizabeth,ZA,-33.918,25.5701,21.0,83,20,8.75,2021-03-10 19:00:49
sernur,RU,56.9333,49.1536,-22.94,91,0,3.85,2021-03-10 19:00:49
masterton,NZ,-40.9597,175.6575,15.0,93,100,0.89,2021-03-10 19:00:50
lorengau,PG,-2.0226,147.2712,27.12,79,100,3.03,2021-03-10 19:00:50
nhulunbuy,AU,-12.2333,136.7667,25.0,94,45,2.97,2021-03-10 19:00:51
jacobina,BR,-11.1806,-40.5183,33.58,29,20,3.77,2021-03-10 19:00:51
bluff,NZ,-46.6,168.3333,6.11,95,0,1.44,2021-03-10 19:00:52
viedma,AR,-40.8135,-62.9967,34.69,18,80,8.84,2021-03-10 19:00:52
tasiilaq,GL,65.6145,-37.6368,-10.0,92,20,1.54,2021-03-10 19:00:53
murupara,NZ,-38.4667,176.7,17.22,98,100,0.81,2021-03-10 19:00:53
borba,BR,-4.3878,-59.5939,25.22,94,98,1.59,2021-03-10 19:00:54
ust-kuyga,RU,70.0167,135.6,-20.56,90,100,1.05,2021-03-10 19:00:54
grindavik,IS,63.8424,-22.4338,-2.0,74,90,15.95,2021-03-10 19:00:55
saskylakh,RU,71.9167,114.0833,-28.91,82,80,8.75,2021-03-10 19:00:55
port alfred,ZA,-33.5906,26.891,21.67,85,56,0.89,2021-03-10 19:00:56
guerrero negro,MX,27.9769,-114.0611,17.01,49,100,9.85,2021-03-10 19:00:56
jamestown,US,42.097,-79.2353,12.78,58,1,6.65,2021-03-10 19:00:56
kieta,PG,-6.2167,155.6333,25.91,71,78,1.23,2021-03-10 19:00:57
nabire,ID,-3.3667,135.4833,23.18,85,100,1.46,2021-03-10 19:00:57
touros,BR,-5.1989,-35.4608,31.0,58,20,7.2,2021-03-10 19:00:58
mehamn,NO,71.0357,27.8492,-8.0,57,0,5.66,2021-03-10 19:00:58
roma,IT,41.8947,12.4839,12.22,40,0,5.66,2021-03-10 19:00:14
port hedland,AU,-20.3167,118.5667,27.0,94,2,2.57,2021-03-10 19:00:59
fortuna,US,40.5982,-124.1573,12.22,66,20,1.4,2021-03-10 19:01:00
wakkanai,JP,45.4094,141.6739,0.25,87,0,6.75,2021-03-10 19:01:00
tuktoyaktuk,CA,69.4541,-133.0374,-14.0,85,90,1.54,2021-03-10 19:01:01
nikolayevka,RU,53.1257,47.2041,-20.68,89,78,4.44,2021-03-10 19:01:01
palmer,US,42.1584,-72.3287,12.78,36,0,1.79,2021-03-10 19:01:02
wattegama,LK,6.7989,81.4808,23.0,100,90,2.06,2021-03-10 19:01:02
trinidad,CU,21.8019,-79.9842,29.0,45,40,6.69,2021-03-10 19:01:03
vao,NC,-22.6667,167.4833,24.25,76,50,4.31,2021-03-10 19:01:03
shujaabad,PK,29.8797,71.2931,25.0,61,0,1.68,2021-03-10 19:01:04
makhu,IN,31.1033,74.9978,18.69,29,0,2.07,2021-03-10 19:01:04
kijang,KR,35.2442,129.2139,3.0,75,0,1.03,2021-03-10 19:01:05
tyup,KG,42.7276,78.3648,2.97,74,87,1.66,2021-03-10 19:01:05
meulaboh,ID,4.1363,96.1285,25.08,83,0,1.62,2021-03-10 19:01:05
temir,KZ,49.1414,57.13,-15.13,94,99,5.82,2021-03-10 19:01:06
hovd,MN,48.0056,91.6419,-2.92,82,0,1.43,2021-03-10 19:01:06
briancon,FR,44.9,6.65,6.11,43,38,1.4,2021-03-10 19:01:07
saint george,US,37.1041,-113.5841,12.78,24,1,3.6,2021-03-10 18:58:42
christchurch,NZ,-43.5333,172.6333,11.67,93,75,1.54,2021-03-10 19:00:00
longyearbyen,SJ,78.2186,15.6401,-4.0,86,75,3.6,2021-03-10 19:01:07
mae hong son,TH,19.3003,97.9685,20.58,26,0,0.66,2021-03-10 19:01:07
benghazi,LY,32.1167,20.0667,16.44,72,100,6.4,2021-03-10 19:01:08
flinders,AU,-34.5833,150.8552,19.44,92,100,0.45,2021-03-10 19:01:08
tondano,ID,1.3038,124.9112,25.0,94,20,0.51,2021-03-10 19:01:09
birjand,IR,32.8663,59.2211,13.0,22,20,2.06,2021-03-10 19:01:09
deputatskiy,RU,69.3,139.9,-21.44,91,100,2.84,2021-03-10 19:01:10
banda aceh,ID,5.5577,95.3222,25.99,65,0,3.25,2021-03-10 19:01:10
richards bay,ZA,-28.783,32.0377,23.96,94,0,1.61,2021-03-10 18:58:21
aklavik,CA,68.2191,-135.0107,-16.0,85,75,1.54,2021-03-10 19:01:11
vila franca do campo,PT,37.7167,-25.4333,16.0,88,20,6.69,2021-03-10 19:01:11
lismore,AU,-28.8135,153.2773,20.0,94,90,2.57,2021-03-10 19:01:11
kodiak,US,57.79,-152.4072,1.0,80,90,4.63,2021-03-10 19:01:11
beni,CD,0.5,29.4667,21.93,63,0,2.31,2021-03-10 19:01:12
kilindoni,TZ,-7.9139,39.6668,27.53,80,62,5.48,2021-03-10 19:01:12
buala,SB,-8.145,159.5921,26.27,80,100,2.51,2021-03-10 19:01:12
leningradskiy,RU,69.3833,178.4167,-30.09,74,0,2.83,2021-03-10 19:01:13
sioux lookout,CA,50.1001,-91.917,-4.0,63,75,1.54,2021-03-10 19:01:13
pemangkat,ID,1.1667,108.9667,25.03,88,69,2.65,2021-03-10 19:01:13
parabel,RU,58.6978,81.4825,-7.74,97,100,4.63,2021-03-10 19:01:14
cabo san lucas,MX,22.8909,-109.9124,28.0,44,20,3.6,2021-03-10 19:01:14
soyaux,FR,45.65,0.2,11.11,50,100,3.09,2021-03-10 19:01:14
faanui,PF,-16.4833,-151.75,27.47,69,100,5.82,2021-03-10 19:01:15
hobyo,SO,5.3505,48.5268,26.06,81,54,6.17,2021-03-10 19:01:15
songjianghe,CN,42.1859,127.479,0.33,90,97,3.12,2021-03-10 19:01:15
vardo,NO,70.3705,31.1107,-11.0,79,95,16.46,2021-03-10 19:01:16
kavaratti,IN,10.5669,72.642,28.56,73,76,4.94,2021-03-10 19:01:16
bathsheba,BB,13.2167,-59.5167,28.0,57,40,9.77,2021-03-10 19:01:16
iralaya,HN,15.0,-83.2333,25.0,94,75,3.6,2021-03-10 19:01:16
lososina,RU,48.9975,140.3106,-6.9,91,100,2.22,2021-03-10 19:01:17
sitka,US,57.0531,-135.33,3.0,70,90,3.09,2021-03-10 18:59:39
ancud,CL,-41.8697,-73.8203,16.67,54,75,9.26,2021-03-10 19:01:17
piacabucu,BR,-10.4056,-36.4344,28.75,67,27,6.82,2021-03-10 19:01:17
hofn,IS,64.2539,-15.2082,3.0,60,40,6.17,2021-03-10 19:01:18
liverpool,GB,53.4106,-2.9779,13.0,76,75,8.75,2021-03-10 19:00:53
porto de moz,BR,-1.7483,-52.2383,23.79,90,100,2.16,2021-03-10 19:01:18
sterlibashevo,RU,53.4376,55.2578,-18.06,90,100,6.49,2021-03-10 19:01:20
pevek,RU,69.7008,170.3133,-29.79,79,0,7.8,2021-03-10 19:01:20
kirakira,SB,-10.4544,161.9205,26.25,82,100,2.67,2021-03-10 19:01:20
castro,BR,-24.7911,-50.0119,25.19,52,2,2.11,2021-03-10 19:01:21
dudinka,RU,69.4058,86.1778,-34.61,85,100,4.48,2021-03-10 19:01:21
dikson,RU,73.5069,80.5464,-21.43,91,100,9.74,2021-03-10 19:01:21
hithadhoo,MV,-0.6,73.0833,28.36,70,100,3.68,2021-03-10 19:01:22
necochea,AR,-38.5473,-58.7368,29.44,43,100,8.05,2021-03-10 19:01:22
fairbanks,US,64.8378,-147.7164,-4.44,86,90,1.01,2021-03-10 19:00:00
salalah,OM,17.0151,54.0924,26.0,65,0,0.51,2021-03-10 19:01:22
bajil,YE,15.0584,43.2851,30.07,41,0,1.28,2021-03-10 19:01:23
manggar,ID,-2.8833,108.2667,25.44,84,90,3.26,2021-03-10 19:01:23
hermanus,ZA,-34.4187,19.2345,21.11,82,95,1.79,2021-03-10 19:01:23
ulaangom,MN,49.9811,92.0667,-15.18,93,39,0.35,2021-03-10 19:01:24
tilichiki,RU,60.4667,166.1,-22.67,93,92,2.17,2021-03-10 19:01:24
padre paraiso,BR,-17.0742,-41.4844,25.11,85,99,1.45,2021-03-10 19:01:24
caravelas,BR,-17.7125,-39.2481,28.3,65,20,5.39,2021-03-10 19:01:25
waddan,LY,29.1614,16.139,20.53,35,100,4.37,2021-03-10 19:01:25
la ronge,CA,55.1001,-105.2842,-10.0,73,100,7.2,2021-03-10 19:01:25
rorvik,NO,64.8621,11.2373,0.0,55,0,11.32,2021-03-10 19:01:26
rio verde de mato grosso,BR,-18.9181,-54.8442,30.44,53,30,1.41,2021-03-10 19:01:26
norman wells,CA,65.282,-126.8329,-23.0,70,75,2.57,2021-03-10 19:01:26
cidreira,BR,-30.1811,-50.2056,23.52,72,3,4.49,2021-03-10 19:01:27
gizo,SB,-8.103,156.8419,28.14,69,85,0.79,2021-03-10 19:01:27
humaita,BR,-7.5061,-63.0208,26.54,79,100,2.41,2021-03-10 19:01:27
hay river,CA,60.8156,-115.7999,-17.0,66,89,1.54,2021-03-10 19:00:05
ilulissat,GL,69.2167,-51.1,-6.0,53,75,1.54,2021-03-10 19:01:27
clyde river,CA,70.4692,-68.5914,-24.0,84,1,2.57,2021-03-10 19:01:28
thiruvananthapuram,IN,8.4833,76.9167,28.0,78,40,1.54,2021-03-10 19:01:28
iqaluit,CA,63.7506,-68.5145,-19.0,65,75,1.54,2021-03-10 19:01:28
pangnirtung,CA,66.1451,-65.7125,-19.0,84,90,5.14,2021-03-10 19:01:29
ivangorod,RU,59.3716,28.2162,-12.91,89,0,4.1,2021-03-10 19:01:29
empangeni,ZA,-28.762,31.8933,22.63,96,0,1.25,2021-03-10 19:01:29
otavi,NA,-19.65,17.3333,21.7,55,100,4.28,2021-03-10 19:01:30
russkaya polyana,UA,49.417,31.9201,-3.67,88,99,3.07,2021-03-10 19:01:30
tuatapere,NZ,-46.1333,167.6833,6.11,95,6,1.22,2021-03-10 19:01:30
klaksvik,FO,62.2266,-6.589,4.0,81,40,5.66,2021-03-10 19:01:31
cerete,CO,8.8848,-75.7905,34.37,41,100,1.43,2021-03-10 18:58:42
constitucion,CL,-35.3333,-72.4167,20.32,69,48,3.34,2021-03-10 19:00:56
maniitsoq,GL,65.4167,-52.9,-6.34,95,100,3.44,2021-03-10 19:01:31
dzhebariki-khaya,RU,62.2167,135.8,-14.98,94,100,2.64,2021-03-10 19:01:32
victoria,CA,48.4329,-123.3693,8.33,81,75,2.06,2021-03-10 18:59:18
tigzirt,DZ,36.8886,4.1198,11.3,73,11,0.83,2021-03-10 19:01:32
mahebourg,MU,-20.4081,57.7,27.0,78,40,3.09,2021-03-10 19:01:32
dunedin,NZ,-45.8742,170.5036,9.44,84,1,0.89,2021-03-10 18:57:07
prince rupert,CA,54.3161,-130.3201,4.0,81,1,0.69,2021-03-10 19:01:33
provideniya,RU,64.3833,-173.3,-26.76,82,10,2.51,2021-03-10 19:01:33
sorland,NO,67.667,12.6934,0.0,59,20,12.35,2021-03-10 19:01:33
ahipara,NZ,-35.1667,173.1667,18.48,91,8,2.69,2021-03-10 19:01:34
hurricane,US,37.1753,-113.2899,12.22,24,1,5.66,2021-03-10 19:01:34
alice town,BS,25.7167,-79.3,21.83,73,82,11.05,2021-03-10 19:01:34
finnsnes,NO,69.2296,17.9811,-18.0,92,0,3.29,2021-03-10 19:01:35
cocorit,MX,27.5833,-109.9667,21.0,37,75,2.57,2021-03-10 19:01:35
saldanha,ZA,-33.0117,17.9442,20.0,88,92,3.09,2021-03-10 19:01:35
esperance,AU,-33.8667,121.9,19.0,82,100,2.57,2021-03-10 19:01:36
kramat,ID,-8.1311,113.4499,23.57,85,100,0.9,2021-03-10 19:01:36
roxas,PH,17.1189,121.6201,22.44,79,99,1.19,2021-03-10 19:01:36
vestmannaeyjar,IS,63.4427,-20.2734,1.0,69,40,11.83,2021-03-10 19:01:37
souillac,MU,-20.5167,57.5167,27.0,78,40,3.09,2021-03-10 19:01:37
menongue,AO,-14.6585,17.691,19.51,71,5,1.49,2021-03-10 19:01:37
almaznyy,RU,48.0448,40.045,-5.0,68,0,4.0,2021-03-10 19:01:38
binga,ZW,-17.6203,27.3414,23.24,75,0,2.06,2021-03-10 19:01:38
east london,ZA,-33.0153,27.9116,22.0,78,0,1.03,2021-03-10 19:01:38
kruisfontein,ZA,-34.0033,24.7314,21.67,77,28,1.79,2021-03-10 19:01:39
isangel,VU,-19.55,169.2667,23.1,78,0,3.64,2021-03-10 19:01:39
floro,NO,61.5996,5.0328,3.0,75,75,11.32,2021-03-10 19:01:39
santa maria,BR,-29.6842,-53.8069,27.0,50,75,2.06,2021-03-10 19:01:40
atar,MR,20.5169,-13.0499,27.0,13,0,6.17,2021-03-10 19:01:40
asyut,EG,27.181,31.1837,26.0,29,0,2.06,2021-03-10 19:01:40
ihosy,MG,-22.4,46.1167,19.82,91,6,2.95,2021-03-10 19:01:41
militello in val di catania,IT,37.2748,14.7934,14.0,54,20,6.17,2021-03-10 19:01:41
shestakovo,RU,56.4915,103.96,-9.54,95,0,1.75,2021-03-10 19:01:41
saint pete beach,US,27.7253,-82.7412,25.0,53,1,4.63,2021-03-10 19:01:42
aasiaat,GL,68.7098,-52.8699,-10.3,92,100,3.18,2021-03-10 19:01:42
xam nua,LA,20.4197,104.0439,16.03,92,98,1.25,2021-03-10 19:01:42
charters towers,AU,-20.1,146.2667,20.38,89,0,1.57,2021-03-10 19:01:43
krasnyy yar,RU,46.5331,48.3456,-5.0,63,0,4.0,2021-03-10 19:01:43
koygorodok,RU,60.445,50.9968,-19.75,92,100,2.32,2021-03-10 19:01:44
kutum,SD,14.2,24.6667,23.73,16,0,5.24,2021-03-10 19:01:44
kiama,AU,-34.6833,150.8667,19.44,88,100,0.45,2021-03-10 19:01:44
severo-kurilsk,RU,50.6789,156.125,-0.1,98,100,8.38,2021-03-10 19:01:44
okhotsk,RU,59.3833,143.3,-19.35,92,100,1.22,2021-03-10 19:01:45
vaitape,PF,-16.5167,-151.75,27.46,69,100,5.8,2021-03-10 19:01:45
warrnambool,AU,-38.3833,142.4833,9.44,93,100,2.66,2021-03-10 19:01:46
sinnamary,GF,5.3833,-52.95,27.1,78,53,6.15,2021-03-10 19:01:46
coahuayana,MX,18.7333,-103.6833,27.0,54,1,4.12,2021-03-10 19:01:46
malanje,AO,-9.5402,16.341,19.9,83,48,1.03,2021-03-10 19:01:47
santa rosa,PH,14.3122,121.1114,26.11,69,20,2.06,2021-03-10 19:01:47
tokur,RU,53.1333,132.9,-15.48,97,95,0.4,2021-03-10 19:01:47
shabo,UA,46.1326,30.386,0.0,51,0,5.0,2021-03-10 19:01:48
inuvik,CA,68.3499,-133.7218,-11.0,73,100,1.54,2021-03-10 19:01:48
aykhal,RU,66.0,111.5,-28.19,85,0,3.68,2021-03-10 19:01:48
nuuk,GL,64.1835,-51.7216,-5.0,93,75,2.06,2021-03-10 19:01:48
ahar,IR,38.4774,47.0699,4.58,68,100,1.37,2021-03-10 19:01:49
santa rosalia,MX,27.3167,-112.2833,19.65,29,100,4.46,2021-03-10 19:01:49
ngunguru,NZ,-35.6167,174.5,17.22,95,100,0.45,2021-03-10 19:01:49
muli,MV,2.9167,73.5667,28.85,64,92,0.87,2021-03-10 19:01:50
altay,CN,47.8667,88.1167,-1.89,82,0,2.6,2021-03-10 19:01:50
torbay,CA,47.6666,-52.7314,2.22,60,20,7.2,2021-03-10 19:01:50
udon thani,TH,17.4157,102.7859,26.67,76,0,1.41,2021-03-10 19:01:51
eyl,SO,7.9803,49.8164,25.05,80,0,6.89,2021-03-10 19:01:51
kysyl-syr,RU,63.8986,122.7617,-19.82,91,95,3.31,2021-03-10 19:01:51
lebu,CL,-37.6167,-73.65,17.45,84,100,2.63,2021-03-10 19:01:52
arraial do cabo,BR,-22.9661,-42.0278,26.0,78,40,5.66,2021-03-10 19:00:06
florianopolis,BR,-27.5967,-48.5492,27.0,57,40,6.69,2021-03-10 19:01:52
tessalit,ML,20.1986,1.0114,25.3,16,98,5.21,2021-03-10 19:01:52
cassilandia,BR,-19.1133,-51.7342,28.89,60,50,1.26,2021-03-10 19:01:53
namibe,AO,-15.1961,12.1522,23.75,71,1,3.19,2021-03-10 19:01:53
makakilo city,US,21.3469,-158.0858,22.0,94,75,1.54,2021-03-10 19:01:53
boguchany,RU,58.3814,97.4531,-11.13,94,100,1.25,2021-03-10 19:01:54
falam,MM,22.9167,93.6833,13.58,57,0,1.6,2021-03-10 19:01:54
boa vista,BR,2.8197,-60.6733,33.0,35,75,6.17,2021-03-10 19:01:54
north bend,US,43.4065,-124.2243,10.56,81,1,3.3,2021-03-10 19:00:46
ladario,BR,-19.0047,-57.6017,34.0,40,0,3.6,2021-03-10 19:01:55
evensk,RU,61.95,159.2333,-28.77,87,100,1.62,2021-03-10 19:01:55
balkanabat,TM,39.5108,54.3671,8.64,54,0,1.28,2021-03-10 19:01:56
tecoanapa,MX,16.5167,-98.75,29.02,54,7,4.78,2021-03-10 19:01:56
pitea,SE,65.3172,21.4794,-10.0,67,0,7.2,2021-03-10 19:01:56
quelimane,MZ,-17.8786,36.8883,28.0,83,20,4.63,2021-03-10 19:01:57
russell,US,38.8953,-98.8598,20.0,22,1,12.86,2021-03-10 19:01:57
satoraljaujhely,HU,48.4,21.6667,-1.0,59,0,4.63,2021-03-10 19:01:57
panguna,PG,-6.3164,155.4848,19.99,91,90,0.61,2021-03-10 19:01:58
caraballeda,VE,10.6112,-66.8522,26.11,62,100,3.13,2021-03-10 19:01:58
the valley,AI,18.217,-63.0578,28.0,65,40,7.72,2021-03-10 19:01:58
esil,KZ,51.9556,66.4042,-10.71,94,100,8.86,2021-03-10 19:01:59
chifeng,CN,42.2683,118.9636,4.31,72,100,1.7,2021-03-10 19:01:59
teguise,ES,29.0605,-13.564,19.0,55,40,10.29,2021-03-10 19:01:59
turbat,PK,26.0023,63.044,19.63,77,0,2.13,2021-03-10 19:00:57
severnyy,RU,50.677,36.5532,-6.0,58,0,1.0,2021-03-10 19:02:00
awjilah,LY,29.1081,21.2869,20.0,42,100,5.43,2021-03-10 19:02:00
bethlehem,ZA,-28.2308,28.3071,16.91,36,0,2.74,2021-03-10 19:02:00
wamba,NG,8.9333,8.6,30.21,24,1,0.7,2021-03-10 19:02:01
saint-pierre,RE,-21.3393,55.4781,26.0,78,0,3.6,2021-03-10 19:02:01
karakol,KG,42.4907,78.3936,2.83,71,98,1.71,2021-03-10 19:02:02
goderich,CA,43.7501,-81.7165,13.0,47,100,4.12,2021-03-10 18:58:20
mandalgovi,MN,45.7625,106.2708,-2.94,89,0,4.99,2021-03-10 19:02:02
luanda,AO,-8.8368,13.2343,28.0,78,40,3.6,2021-03-10 18:57:38
vakhrushev,RU,48.9833,142.9667,-9.14,89,4,2.0,2021-03-10 19:02:02
jackson,US,32.2988,-90.1848,24.0,46,75,8.75,2021-03-10 18:59:47
padang,ID,-0.9492,100.3543,24.0,94,75,1.03,2021-03-10 19:02:03
ukiah,US,39.1502,-123.2078,7.0,76,90,6.69,2021-03-10 19:02:03
mascote,BR,-15.5631,-39.3025,30.0,66,0,6.17,2021-03-10 19:02:04
buin,CL,-33.7333,-70.75,28.33,36,0,7.2,2021-03-10 19:02:04
jiazi,CN,22.8779,116.067,17.53,82,100,7.94,2021-03-10 19:02:04
yulara,AU,-25.2406,130.9889,24.0,83,75,1.54,2021-03-10 19:02:04
porto novo,CV,17.0197,-25.0647,22.0,64,75,11.32,2021-03-10 19:02:05
bubaque,GW,11.2833,-15.8333,25.96,67,0,7.73,2021-03-10 19:02:05
arawa,PG,-6.2132,155.5367,24.81,74,90,1.16,2021-03-10 19:02:05
oktyabrskiy,RU,54.4815,53.471,-19.95,90,82,4.41,2021-03-10 19:02:06
tazmalt,DZ,36.3868,4.3989,9.37,72,1,2.02,2021-03-10 19:02:06
venice,US,27.0998,-82.4543,25.0,41,75,6.69,2021-03-10 19:02:06
salinas,US,36.6777,-121.6555,13.0,71,90,2.06,2021-03-10 19:01:48
vostok,RU,46.4856,135.8833,-12.7,94,69,2.39,2021-03-10 19:02:07
bambanglipuro,ID,-7.95,110.2833,25.55,81,100,0.84,2021-03-10 19:02:07
ratnagiri,IN,16.9833,73.3,24.85,69,0,1.66,2021-03-10 19:02:07
praia da vitoria,PT,38.7333,-27.0667,20.0,73,20,4.83,2021-03-10 19:02:08
alekseyevka,RU,50.6309,38.6903,-7.91,91,94,3.85,2021-03-10 19:02:08
manicore,BR,-5.8092,-61.3003,23.04,97,100,0.82,2021-03-10 19:02:08
charlestown,AU,-32.95,151.6667,23.33,84,22,3.59,2021-03-10 19:02:09
beaverlodge,CA,55.2166,-119.4361,-13.0,66,1,2.06,2021-03-10 19:02:09
northam,GB,51.0333,-4.2167,11.67,95,100,13.29,2021-03-10 19:02:09
pacific grove,US,36.6177,-121.9166,10.56,89,100,6.04,2021-03-10 19:02:09
nelson bay,AU,-32.7167,152.15,21.11,88,90,2.57,2021-03-10 19:02:10
kasongo-lunda,CD,-6.4667,16.8167,24.82,75,77,0.83,2021-03-10 19:02:10
ankazoabo,MG,-22.2833,44.5167,21.67,82,0,2.07,2021-03-10 19:02:11
grand-lahou,CI,5.1367,-5.0242,27.32,83,100,5.81,2021-03-10 19:02:11
hasaki,JP,35.7333,140.8333,2.0,64,20,1.03,2021-03-10 19:02:11
mandurah,AU,-32.55,115.7,22.78,88,100,3.66,2021-03-10 19:02:11
lasa,IT,46.6166,10.7002,10.0,34,0,1.54,2021-03-10 19:02:12
san patricio,MX,19.2167,-104.7,26.0,69,40,6.17,2021-03-10 19:02:12
navahrudak,BY,53.6,25.8333,-8.27,94,0,2.55,2021-03-10 19:02:12
mumbwa,ZM,-14.9783,27.0619,18.87,95,100,1.21,2021-03-10 19:00:31
atbasar,KZ,51.8,68.3333,-10.49,95,99,8.6,2021-03-10 19:02:13
zalantun,CN,48.0,122.7167,-5.06,91,0,2.37,2021-03-10 19:02:13
rawson,AR,-43.3002,-65.1023,28.05,22,100,16.53,2021-03-10 19:00:59
beringovskiy,RU,63.05,179.3167,-26.19,81,15,1.01,2021-03-10 19:02:13
gobabis,NA,-22.45,18.9667,24.38,35,0,5.11,2021-03-10 19:02:14
wahpeton,US,46.2652,-96.6059,1.0,93,90,6.69,2021-03-10 19:02:14
lazaro cardenas,MX,17.9583,-102.2,27.67,53,0,3.62,2021-03-10 18:58:54
flin flon,CA,54.7682,-101.865,-4.0,93,90,3.09,2021-03-10 19:02:14
aztec,US,36.8222,-107.9929,10.0,21,1,6.17,2021-03-10 19:02:15
alyangula,AU,-13.8483,136.4192,25.0,100,97,2.06,2021-03-10 19:02:15
cheremukhovo,RU,60.3484,59.9851,-24.06,90,100,1.15,2021-03-10 19:02:15
carlsbad,US,33.1581,-117.3506,15.56,63,40,6.69,2021-03-10 19:01:22
katsuura,JP,35.1333,140.3,7.0,49,0,2.57,2021-03-10 19:02:16
huarmey,PE,-10.0681,-78.1522,25.67,64,100,3.34,2021-03-10 19:02:16
dragor,DK,55.5946,12.6664,2.78,69,40,9.26,2021-03-10 19:02:17
homer,US,59.6425,-151.5483,1.11,100,90,1.54,2021-03-10 19:02:17
moron,AR,-34.6534,-58.6198,30.0,54,40,5.14,2021-03-10 19:02:17
krasnogorskoye,RU,52.2953,86.1979,-1.57,93,100,3.02,2021-03-10 19:02:18
ola,RU,59.5833,151.2833,-21.1,87,64,1.95,2021-03-10 19:02:18
carnarvon,AU,-24.8667,113.6333,25.0,83,40,4.12,2021-03-10 19:02:18
mar del plata,AR,-38.0023,-57.5575,26.0,69,0,6.17,2021-03-10 19:02:19
sabang,ID,5.8933,95.3214,27.94,68,0,5.12,2021-03-10 19:02:19
zhangye,CN,38.9342,100.4517,8.02,45,0,3.04,2021-03-10 19:02:19
vilyuysk,RU,63.7553,121.6247,-20.29,91,68,3.57,2021-03-10 19:02:19
bianzhuang,CN,34.8486,118.0447,7.48,62,100,2.23,2021-03-10 19:02:20
bengkulu,ID,-3.8004,102.2655,24.15,89,62,1.96,2021-03-10 19:02:20
malakal,SS,9.5334,31.6605,31.96,22,0,0.26,2021-03-10 19:02:20
bykovo,RU,55.6361,38.0803,-16.0,55,0,2.0,2021-03-10 19:02:21
sterling,US,39.0062,-77.4286,21.67,23,20,4.12,2021-03-10 19:01:33
wad rawah,SD,15.1603,33.1397,31.46,12,0,4.51,2021-03-10 19:02:22
shush,IR,32.1942,48.2436,19.03,35,61,3.28,2021-03-10 19:02:22
batagay-alyta,RU,67.8006,130.4114,-20.41,78,100,3.61,2021-03-10 19:02:22
musoma,TZ,-1.5,33.8,23.0,78,20,2.2,2021-03-10 19:02:23
kendari,ID,-3.945,122.4989,23.39,90,100,1.58,2021-03-10 19:02:23
waitara,NZ,-38.925,174.25,13.33,91,100,5.36,2021-03-10 19:02:23
kumla,SE,59.1277,15.1434,-1.0,69,75,5.14,2021-03-10 19:02:23
tierralta,CO,8.1736,-76.0592,31.01,61,90,3.31,2021-03-10 19:02:24
kerema,PG,-7.9631,145.7785,24.63,85,49,1.51,2021-03-10 19:02:24
neryungri,RU,56.6709,124.6491,-16.97,87,100,1.79,2021-03-10 19:02:24
shashi,CN,30.3072,112.2447,8.33,96,95,1.04,2021-03-10 19:02:25
inta,RU,66.0317,60.1659,-26.71,88,93,2.57,2021-03-10 19:02:25
manado,ID,1.487,124.8455,25.0,94,20,0.51,2021-03-10 19:02:25
svobodnyy,RU,51.4,128.1333,-10.96,93,0,4.39,2021-03-10 19:02:26
merauke,ID,-8.4667,140.3333,24.47,87,9,1.81,2021-03-10 19:02:26
vera cruz,BR,-12.6333,-41.0333,31.25,39,100,3.07,2021-03-10 19:02:27
tautira,PF,-17.7333,-149.15,29.0,65,40,3.09,2021-03-10 19:02:14
ust-maya,RU,60.4167,134.5333,-16.2,93,100,2.02,2021-03-10 19:02:27
rapid city,US,44.0805,-103.231,0.0,86,90,6.17,2021-03-10 19:01:12
sauce,UY,-34.6469,-56.0628,28.89,53,20,6.17,2021-03-10 19:02:27
sungai udang,MY,2.269,102.1427,25.0,83,20,2.06,2021-03-10 19:02:28
grootfontein,NA,-19.5667,18.1167,21.0,68,71,1.54,2021-03-10 19:02:28
zaterechnyy,RU,44.7931,45.2097,-0.67,82,100,3.89,2021-03-10 19:02:28
komsomolskiy,UZ,40.4272,71.7189,8.0,81,40,1.03,2021-03-10 19:02:29
mount isa,AU,-20.7333,139.5,24.0,94,100,2.06,2021-03-10 19:00:51
imeni poliny osipenko,RU,52.4201,136.4853,-8.65,96,100,1.97,2021-03-10 19:02:29
atherton,GB,53.5237,-2.4935,12.78,67,100,4.92,2021-03-10 19:01:14
narsingi,IN,18.0333,78.4333,26.11,40,0,0.89,2021-03-10 19:02:29
kloulklubed,PW,7.0419,134.2556,24.0,100,75,2.06,2021-03-10 19:02:30
oksfjord,NO,70.2396,22.3479,-5.0,58,0,7.2,2021-03-10 19:02:30
bassar,TG,9.25,0.7833,34.0,61,75,3.09,2021-03-10 19:02:30
roald,NO,62.5833,6.1333,5.0,48,75,8.23,2021-03-10 19:02:31
riyadh,SA,24.6877,46.7219,24.0,35,0,3.6,2021-03-10 18:59:31
tual,ID,-5.6667,132.75,27.01,76,100,3.79,2021-03-10 19:02:31
diego de almagro,CL,-26.3667,-70.05,25.97,37,81,6.15,2021-03-10 19:02:31
bartica,GY,6.4,-58.6167,31.0,58,75,5.14,2021-03-10 19:02:32
karpathos,GR,35.507,27.2132,17.0,82,40,4.63,2021-03-10 19:02:32
san cristobal,VE,7.7669,-72.225,24.0,94,40,6.17,2021-03-10 19:02:32
buta,CD,2.7858,24.73,28.78,43,98,0.78,2021-03-10 19:02:33
dandong,CN,40.1292,124.3947,2.56,82,94,1.39,2021-03-10 19:02:33
tooele,US,40.5308,-112.2983,6.0,39,90,1.54,2021-03-10 19:02:33
talaya,RU,61.3833,152.75,-23.05,74,0,2.66,2021-03-10 19:02:34
beatrice,US,40.2681,-96.747,23.0,21,1,14.92,2021-03-10 19:02:34
surt,LY,31.2089,16.5887,16.77,76,100,4.76,2021-03-10 19:02:34
bambous virieux,MU,-20.3428,57.7575,27.0,78,40,3.09,2021-03-10 19:02:35
sept-iles,CA,50.2001,-66.3821,1.67,75,90,3.6,2021-03-10 19:02:35
mogadishu,SO,2.0371,45.3438,25.98,85,0,9.68,2021-03-10 19:02:35
nevelsk,RU,46.6733,141.8633,-13.0,85,11,4.24,2021-03-10 19:02:35
kabare,CD,-2.4683,28.8242,16.24,82,81,1.12,2021-03-10 19:02:36
hamilton,CA,43.2334,-79.9496,18.0,33,75,8.75,2021-03-10 19:01:00
sisimiut,GL,66.9395,-53.6735,-6.47,95,100,2.54,2021-03-10 19:02:36
kaliganj,BD,23.4095,89.1402,21.2,95,0,3.22,2021-03-10 19:02:37
soure,BR,-0.7167,-48.5233,25.62,84,100,4.17,2021-03-10 19:02:37
orlik,RU,52.5178,99.825,-14.74,74,0,1.24,2021-03-10 19:02:37
vytegra,RU,61.0064,36.4481,-16.28,94,100,1.39,2021-03-10 19:02:38
iranshahr,IR,27.2025,60.6848,26.0,24,0,3.09,2021-03-10 19:02:38
sotik,KE,-0.6833,35.1187,14.77,53,96,0.78,2021-03-10 19:02:38
concordia,AR,-31.393,-58.0209,29.0,42,75,2.57,2021-03-10 19:00:03
goedereede,NL,51.8175,3.9806,6.67,87,100,2.68,2021-03-10 19:02:39
havre-saint-pierre,CA,50.2334,-63.5986,1.0,75,1,2.57,2021-03-10 19:02:39
moranbah,AU,-22.0016,148.0466,21.46,83,11,3.21,2021-03-10 19:02:40
sindor,RU,62.8629,51.8905,-15.44,95,100,2.04,2021-03-10 19:02:40
marsa matruh,EG,31.3525,27.2453,17.0,77,75,8.23,2021-03-10 19:02:40
saint-augustin,CA,51.226,-58.6502,-0.13,98,100,6.04,2021-03-10 19:02:41
usinsk,RU,65.9939,57.5281,-21.88,91,100,3.42,2021-03-10 19:02:41
broome,AU,-17.9667,122.2333,26.0,83,75,4.63,2021-03-10 19:02:41
ati,TD,13.2154,18.3353,31.37,11,0,3.63,2021-03-10 19:02:15
yaguajay,CU,22.3272,-79.2378,24.71,59,0,9.37,2021-03-10 19:02:42
corvallis,US,44.5646,-123.262,6.67,100,90,2.68,2021-03-10 19:00:00
mishan,CN,45.55,131.8833,-5.18,92,28,2.02,2021-03-10 19:02:42
pastos bons,BR,-6.6017,-44.0767,28.99,69,28,1.37,2021-03-10 19:02:43
shache,CN,38.4167,77.2406,9.53,46,6,3.35,2021-03-10 19:02:43
ahuimanu,US,21.4447,-157.8378,21.67,94,75,2.45,2021-03-10 19:02:43
jumla,NP,29.2747,82.1838,4.51,68,14,1.55,2021-03-10 19:01:21
cascas,PE,-7.4833,-78.8167,18.0,59,75,1.54,2021-03-10 19:02:44
oranjemund,NA,-28.55,16.4333,19.61,84,0,0.83,2021-03-10 19:02:44
iracoubo,GF,5.4802,-53.2011,26.86,79,46,5.93,2021-03-10 19:02:45
lompoc,US,34.6391,-120.4579,9.0,87,90,1.54,2021-03-10 19:02:45
varhaug,NO,58.6147,5.6457,3.0,87,75,9.77,2021-03-10 19:02:45
opuwo,NA,-18.0607,13.84,25.55,35,31,2.65,2021-03-10 19:02:46
tire,TR,38.0888,27.7351,10.56,76,0,1.03,2021-03-10 19:02:46
key west,US,24.5557,-81.7826,26.0,47,40,7.72,2021-03-10 19:02:46
nome,US,64.5011,-165.4064,-28.0,69,1,3.6,2021-03-10 19:02:47
portland,US,45.5234,-122.6762,10.0,81,90,0.99,2021-03-10 19:01:09
grand gaube,MU,-20.0064,57.6608,26.11,77,1,1.34,2021-03-10 19:02:47
vagur,FO,61.4732,-6.8119,5.27,86,100,10.83,2021-03-10 19:02:47
yerbogachen,RU,61.2767,108.0108,-17.4,93,48,2.06,2021-03-10 19:02:48
vila,PT,42.0304,-8.1588,10.0,91,100,2.68,2021-03-10 19:02:48
kyaikkami,MM,16.08,97.5675,26.44,67,5,1.31,2021-03-10 19:02:48
lengshuijiang,CN,27.6881,111.4294,9.86,91,100,0.22,2021-03-10 19:00:05
beirut,LB,33.8889,35.4944,17.78,26,100,5.29,2021-03-10 19:02:17
vila velha,BR,-20.3297,-40.2925,32.0,58,20,5.66,2021-03-10 19:02:49
cairns,AU,-16.9167,145.7667,23.0,83,90,1.03,2021-03-10 19:00:45
launceston,AU,-41.45,147.1667,13.33,88,75,2.06,2021-03-10 19:02:49
ostrovnoy,RU,68.0531,39.5131,-15.42,90,0,5.39,2021-03-10 19:02:49
lavrentiya,RU,65.5833,-171.0,-31.24,75,0,1.56,2021-03-10 19:02:50
kashan,IR,33.9831,51.4364,15.13,34,75,1.43,2021-03-10 19:02:50
chapais,CA,49.7834,-74.8492,4.0,56,90,8.75,2021-03-10 19:02:44
alexandria,EG,31.2156,29.9553,19.0,68,0,5.66,2021-03-10 19:02:46
palencia,ES,42.0167,-4.5333,13.33,52,100,0.89,2021-03-10 19:02:51
winnemucca,US,40.973,-117.7357,4.0,33,90,2.57,2021-03-10 19:02:51
idah,NG,7.1065,6.7342,30.68,57,99,3.43,2021-03-10 19:02:51
buchanan,LR,5.8808,-10.0467,28.0,83,40,2.57,2021-03-10 19:02:52
kulhudhuffushi,MV,6.6221,73.07,28.65,72,100,4.02,2021-03-10 19:02:52
abu dhabi,AE,24.4667,54.3667,24.0,60,0,2.06,2021-03-10 19:00:24
sooke,CA,48.3746,-123.7276,8.33,67,84,5.14,2021-03-10 19:02:27
miyako,JP,39.6367,141.9525,0.19,88,0,2.35,2021-03-10 19:02:52
duncan,US,34.5023,-97.9578,26.11,53,1,9.26,2021-03-10 19:02:53
salto,UY,-31.3833,-57.9667,29.0,42,75,2.57,2021-03-10 18:58:07
cockburn town,TC,21.4612,-71.1419,22.66,88,100,13.78,2021-03-10 18:59:58
khuzdar,PK,27.7384,66.6434,17.23,29,0,1.96,2021-03-10 19:02:53
san ramon,US,37.7799,-121.978,11.11,66,40,3.6,2021-03-10 19:02:54
katherine,AU,-14.4667,132.2667,24.0,100,49,1.54,2021-03-10 19:02:54
springfield,US,37.2153,-93.2982,19.44,59,90,10.29,2021-03-10 19:02:22
bantry,IE,51.6833,-9.45,11.0,66,75,15.95,2021-03-10 19:02:54
brae,GB,60.3964,-1.353,5.0,81,90,10.8,2021-03-10 19:02:55
mogok,MM,22.9167,96.5,18.06,33,16,0.35,2021-03-10 19:02:55
taltal,CL,-25.4,-70.4833,22.05,62,1,1.94,2021-03-10 19:02:55
eureka,US,40.8021,-124.1637,11.11,69,81,1.79,2021-03-10 19:02:55
astana,KZ,51.1801,71.446,-7.0,93,90,12.0,2021-03-10 18:58:20
monte alegre,BR,-2.0078,-54.0692,27.87,69,91,4.16,2021-03-10 19:02:56
bilma,NE,18.6853,12.9164,27.58,13,0,2.63,2021-03-10 19:02:56
san rafael,AR,-34.6177,-68.3301,34.24,24,44,6.19,2021-03-10 19:00:43
bambari,CF,5.768,20.6757,27.88,46,0,1.7,2021-03-10 19:02:57
purpe,RU,64.4803,76.6897,-34.95,85,0,1.57,2021-03-10 19:02:57
puerto del rosario,ES,28.5004,-13.8627,18.0,63,40,9.77,2021-03-10 19:02:57
charkhi dadri,IN,28.6,76.2667,20.91,24,0,0.98,2021-03-10 19:02:58
jacareacanga,BR,-6.2222,-57.7528,28.0,78,75,4.63,2021-03-10 19:02:58
mizdah,LY,31.4451,12.9801,14.56,66,100,8.03,2021-03-10 19:02:58
kindu,CD,-2.95,25.95,22.33,92,100,1.76,2021-03-10 18:59:24
kuroiso,JP,36.9667,140.05,0.56,71,0,0.45,2021-03-10 19:02:59
rocky mountain house,CA,52.3668,-114.9188,-6.0,58,99,3.6,2021-03-10 19:02:59
riohacha,CO,11.5444,-72.9072,29.95,48,26,8.0,2021-03-10 19:02:59
pacifica,US,37.6138,-122.4869,10.56,76,40,2.57,2021-03-10 19:02:01
ust-ilimsk,RU,58.0006,102.6619,-11.61,94,98,2.12,2021-03-10 19:03:00
muswellbrook,AU,-32.2667,150.9,18.89,76,38,0.45,2021-03-10 19:03:00
nyurba,RU,63.2842,118.3319,-21.43,89,0,3.51,2021-03-10 19:03:01
shimoda,JP,34.6667,138.95,3.89,64,79,0.45,2021-03-10 19:03:01
korcula,HR,42.9622,17.1369,8.0,34,20,10.29,2021-03-10 19:01:15
winslow,US,35.0242,-110.6974,13.0,14,20,7.2,2021-03-10 19:02:25
mount vernon,US,40.9126,-73.8371,13.89,47,20,6.69,2021-03-10 19:03:01
svetlaya,RU,46.5389,138.3297,-3.94,89,98,2.29,2021-03-10 19:03:02
tarquinia,IT,42.2482,11.7553,6.0,45,20,2.57,2021-03-10 19:03:03
dhemaji,IN,27.4833,94.5833,19.74,63,35,2.29,2021-03-10 19:03:03
ridgecrest,US,35.6225,-117.6709,12.0,35,75,9.77,2021-03-10 19:00:04
beloha,MG,-25.1667,45.05,24.31,70,15,2.48,2021-03-10 19:03:03
chunian,PK,30.964,73.9803,18.6,27,0,1.31,2021-03-10 19:03:04
umm kaddadah,SD,13.6017,26.6876,28.65,13,3,6.28,2021-03-10 19:03:04
progreso,MX,21.2833,-89.6667,31.11,42,40,3.6,2021-03-10 19:03:04
amurzet,RU,47.6967,131.0981,-6.45,93,0,2.54,2021-03-10 19:03:05
conceicao do araguaia,BR,-8.2578,-49.2647,28.85,74,100,1.63,2021-03-10 19:03:05
kande,TG,9.9578,1.0447,34.0,31,20,2.06,2021-03-10 19:03:05
xingcheng,CN,40.6167,120.7167,5.35,75,100,4.74,2021-03-10 19:03:06
nguru,NG,12.8791,10.4526,29.45,12,0,2.9,2021-03-10 19:03:06
koulamoutou,GA,-1.1303,12.4736,26.88,72,82,1.13,2021-03-10 19:03:06
khandyga,RU,62.6667,135.6,-15.13,94,100,2.84,2021-03-10 19:03:07
itoman,JP,26.1247,127.6694,18.0,72,40,2.57,2021-03-10 19:03:07
ordynskoye,RU,54.3656,81.8994,2.28,94,100,8.6,2021-03-10 19:03:07
san nicolas,PH,18.1725,120.5953,22.0,83,20,1.03,2021-03-10 19:03:08
portoferraio,IT,42.8115,10.3146,11.67,65,0,0.89,2021-03-10 19:03:08
luis correia,BR,-2.8792,-41.6669,30.0,74,40,6.17,2021-03-10 19:03:09
daura,NG,11.5538,11.4085,28.63,13,0,2.53,2021-03-10 19:03:09
lakatoro,VU,-16.0999,167.4164,25.47,78,65,4.83,2021-03-10 19:03:09
les cayes,HT,18.2,-73.75,27.69,65,45,3.18,2021-03-10 19:03:10
inhambane,MZ,-23.865,35.3833,25.56,83,0,5.14,2021-03-10 19:03:10
dadu,PK,26.7329,67.7763,23.51,20,0,3.89,2021-03-10 19:03:10
zlitan,LY,32.4674,14.5687,15.78,80,100,5.98,2021-03-10 19:03:10
thunder bay,CA,48.4001,-89.3168,7.0,61,90,5.14,2021-03-10 19:03:11
dubbo,AU,-32.25,148.6167,18.0,88,30,4.63,2021-03-10 19:03:11
samarai,PG,-10.6167,150.6667,27.72,76,16,2.77,2021-03-10 19:03:11
pahrump,US,36.2083,-115.9839,11.67,48,100,7.6,2021-03-10 19:03:12
galveston,US,29.3014,-94.7977,22.0,73,40,6.69,2021-03-10 19:03:12
